[
    {
        "coordinates": [
            -75.172,
            39.9012
        ],
        "conference": "Eastern",
        "division": "Atlantic",
        "team": "76ers",
        "city": "Philadelphia",
        "arena": "Wells Fargo Center",
        "schedule": "https://www.nba.com/sixers/schedule",
        "logo": ""
    },
    {
        "coordinates": [
            -71.0621,
            42.3662
        ],
        "conference": "Eastern",
        "division": "Atlantic",
        "team": "Celtics",
        "city": "Boston",
        "arena": "TD Garden",
        "schedule": "https://www.nba.com/celtics/schedule",
        "logo": ""
    },
    {
        "coordinates": [
            -73.9934,
            40.7505
        ],
        "conference": "Eastern",
        "division": "Atlantic",
        "team": "Knicks",
        "city": "New York",
        "arena": "Madison Square Garden",
        "schedule": "https://www.nba.com/knicks/schedule",
        "logo": ""
    },
    {
        "coordinates": [
            -73.9758,
            40.6828
        ],
        "conference": "Eastern",
        "division": "Atlantic",
        "team": "Nets",
        "city": "Brooklyn",
        "arena": "Barclays Center",
        "schedule": "https://www.nba.com/nets/schedule",
        "logo": ""
    },
    {
        "coordinates": [
            -79.3791,
            43.6435
        ],
        "conference": "Eastern",
        "division": "Atlantic",
        "team": "Raptors",
        "city": "Toronto",
        "arena": "Air Canada Center",
        "schedule": "https://www.nba.com/raptors/schedule",
        "logo": ""
    },
    {
        "coordinates": [
            -87.9172,
            43.0436
        ],
        "conference": "Eastern",
        "division": "Central",
        "team": "Bucks",
        "city": "Milwaukee",
        "arena": "Bradley Center",
        "schedule": "https://www.nba.com/bucks/schedule",
        "logo": ""
    },
    {
        "coordinates": [
            -87.6742,
            41.8807
        ],
        "conference": "Eastern",
        "division": "Central",
        "team": "Bulls",
        "city": "Chicago",
        "arena": "United Center",
        "schedule": "https://www.nba.com/bulls/schedule",
        "logo": ""
    },
    {
        "coordinates": [
            -81.6882,
            41.4965
        ],
        "conference": "Eastern",
        "division": "Central",
        "team": "Cavaliers",
        "city": "Cleveland",
        "arena": "Quicken Loans Arena",
        "schedule": "https://www.nba.com/cavaliers/schedule",
        "logo": ""
    },
    {
        "coordinates": [
            -83.0552,
            42.341
        ],
        "conference": "Eastern",
        "division": "Central",
        "team": "Pistons",
        "city": "Detroit",
        "arena": "Little Caesars Arena",
        "schedule": "https://www.nba.com/pistons/schedule",
        "logo": ""
    },
    {
        "coordinates": [
            -86.1555,
            39.7639
        ],
        "conference": "Eastern",
        "division": "Central",
        "team": "Pacers",
        "city": "Indianapolis",
        "arena": "Bankers Life Fieldhouse",
        "schedule": "https://www.nba.com/pacers/schedule",
        "logo": ""
    },
    {
        "coordinates": [
            -111.9011,
            40.7683
        ],
        "conference": "Western",
        "division": "Northwest",
        "team": "Jazz",
        "city": "Utah",
        "arena": "Vivint Smart Home Arena",
        "schedule": "https://www.nba.com/jazz/schedule",
        "logo": ""
    },
    {
        "coordinates": [
            -97.5151,
            35.4634
        ],
        "conference": "Western",
        "division": "Northwest",
        "team": "Thunder",
        "city": "Oklahoma City",
        "arena": "Chesapeake Arena",
        "schedule": "https://www.nba.com/thunder/schedule",
        "logo": ""
    },
    {
        "coordinates": [
            -93.2762,
            44.9795
        ],
        "conference": "Western",
        "division": "Northwest",
        "team": "Timberwolves",
        "city": "Minnesota",
        "arena": "Target Center",
        "schedule": "https://www.nba.com/timberwolves/schedule",
        "logo": ""
    },
    {
        "coordinates": [
            -122.6668,
            45.5316
        ],
        "conference": "Western",
        "division": "Northwest",
        "team": "Trail Blazers",
        "city": "Portland",
        "arena": "Moda Center",
        "schedule": "https://www.nba.com/trail blazers/schedule",
        "logo": ""
    },
    {
        "coordinates": [
            -105.0077,
            39.7487
        ],
        "conference": "Western",
        "division": "Northwest",
        "team": "Nuggets",
        "city": "Denver",
        "arena": "Pepsi Center",
        "schedule": "https://www.nba.com/nuggets/schedule",
        "logo": ""
    },
    {
        "coordinates": [
            -118.2673,
            34.043
        ],
        "conference": "Western",
        "division": "Pacific",
        "team": "Clippers",
        "city": "Los Angeles",
        "arena": "Staples Center",
        "schedule": "https://www.nba.com/clippers/schedule",
        "logo": ""
    },
    {
        "coordinates": [
            -121.4996,
            38.5806
        ],
        "conference": "Western",
        "division": "Pacific",
        "team": "Kings",
        "city": "Sacramento",
        "arena": "Golden 1 Center",
        "schedule": "https://www.nba.com/kings/schedule",
        "logo": ""
    },
    {
        "coordinates": [
            -118.2673,
            34.043
        ],
        "conference": "Western",
        "division": "Pacific",
        "team": "Lakers",
        "city": "Los Angeles",
        "arena": "Staples Center",
        "schedule": "https://www.nba.com/lakers/schedule",
        "logo": ""
    },
    {
        "coordinates": [
            -112.0712,
            33.4457
        ],
        "conference": "Western",
        "division": "Pacific",
        "team": "Suns",
        "city": "Phoenix",
        "arena": "Talking Stick Resort Arena",
        "schedule": "https://www.nba.com/suns/schedule",
        "logo": ""
    },
    {
        "coordinates": [
            -122.203,
            37.7503
        ],
        "conference": "Western",
        "division": "Pacific",
        "team": "Warriors",
        "city": "Golden State",
        "arena": "Oracle Arena",
        "schedule": "https://www.nba.com/warriors/schedule",
        "logo": ""
    },
    {
        "coordinates": [
            -77.0209,
            38.8981
        ],
        "conference": "Eastern",
        "division": "Southeast",
        "team": "Capital One Arena",
        "city": "Washington",
        "arena": "AmericanAirlines Arena",
        "schedule": "https://www.nba.com/capital one arena/schedule",
        "logo": ""
    },
    {
        "coordinates": [
            -84.3963,
            33.7573
        ],
        "conference": "Eastern",
        "division": "Southeast",
        "team": "Hawks",
        "city": "Atlanta",
        "arena": "Phillips Arena",
        "schedule": "https://www.nba.com/hawks/schedule",
        "logo": ""
    },
    {
        "coordinates": [
            -80.187,
            25.7814
        ],
        "conference": "Eastern",
        "division": "Southeast",
        "team": "Heat",
        "city": "Miami",
        "arena": "AmericanAirlines Arena",
        "schedule": "https://www.nba.com/heat/schedule",
        "logo": ""
    },
    {
        "coordinates": [
            -80.8392,
            35.2251
        ],
        "conference": "Eastern",
        "division": "Southeast",
        "team": "Hornets",
        "city": "Charlotte",
        "arena": "Spectrum Center",
        "schedule": "https://www.nba.com/hornets/schedule",
        "logo": ""
    },
    {
        "coordinates": [
            -81.3837,
            28.5399
        ],
        "conference": "Eastern",
        "division": "Southeast",
        "team": "Magic",
        "city": "Orlando",
        "arena": "Amway Center",
        "schedule": "https://www.nba.com/magic/schedule",
        "logo": ""
    },
    {
        "coordinates": [
            -96.8104,
            32.7905
        ],
        "conference": "Western",
        "division": "Southwest",
        "team": "Mavericks",
        "city": "Dallas",
        "arena": "American Airlines Ceter",
        "schedule": "https://www.nba.com/mavericks/schedule",
        "logo": ""
    },
    {
        "coordinates": [
            -90.0821,
            29.949
        ],
        "conference": "Western",
        "division": "Southwest",
        "team": "Pelicans",
        "city": "New Orleans",
        "arena": "Smoothie King Center",
        "schedule": "https://www.nba.com/pelicans/schedule",
        "logo": ""
    },
    {
        "coordinates": [
            -95.3621,
            29.7508
        ],
        "conference": "Western",
        "division": "Southwest",
        "team": "Rockets",
        "city": "Houston",
        "arena": "Toyota Center",
        "schedule": "https://www.nba.com/rockets/schedule",
        "logo": ""
    },
    {
        "coordinates": [
            -98.4375,
            29.4271
        ],
        "conference": "Western",
        "division": "Southwest",
        "team": "Spurs",
        "city": "San Antonio",
        "arena": "AT&T Center",
        "schedule": "https://www.nba.com/spurs/schedule",
        "logo": ""
    },
    {
        "coordinates": [
            -90.0505,
            35.1382
        ],
        "conference": "Western",
        "division": "Southwest",
        "team": "Grizzlies",
        "city": "Memphis",
        "arena": "Fedex Forum",
        "schedule": "https://www.nba.com/grizzlies/schedule",
        "logo": ""
    }
]